,admin_name,capital,city,city_ascii,country,id,iso2,iso3,lat,lng,population
6303,Lower Saxony,minor,Emden,Emden,Germany,1276309938.0,DE,DEU,53.3667,7.2167,51526.0
3441,Taipei,primary,Taipei,Taipei,Taiwan,1158881289.0,TW,TWN,25.0358,121.5683,6900273.0
2664,Chelyabinskaya Oblast’,admin,Chelyabinsk,Chelyabinsk,Russia,1643224011.0,RU,RUS,55.155,61.4387,1091000.0
8202,Virginia,,Blacksburg,Blacksburg,United States,1840006446.0,US,USA,37.23,-80.4277,93560.0
2160,Sankt-Peterburg,admin,St. Petersburg,St. Petersburg,Russia,1643616350.0,RU,RUS,59.939,30.316,4553000.0
7711,Lazio,primary,Rome,Rome,Italy,1380382862.0,IT,ITA,41.896,12.4833,3339000.0
1860,Porto,admin,Porto,Porto,Portugal,1620356810.0,PT,PRT,41.15,-8.62,1337000.0
2035,Inđija,admin,Inđija,Indija,Serbia,1688349740.0,RS,SRB,45.0482,20.0816,
7808,Tōkyō,primary,Tokyo,Tokyo,Japan,1392685764.0,JP,JPN,35.685,139.7514,35676000.0
4972,Ceará,,Russas,Russas,Brazil,1076843360.0,BR,BRA,-4.94,-37.98,39465.0
3441,Taipei,primary,Taipei,Taipei,Taiwan,1158881289.0,TW,TWN,25.0358,121.5683,6900273.0
2160,Sankt-Peterburg,admin,St. Petersburg,St. Petersburg,Russia,1643616350.0,RU,RUS,59.939,30.316,4553000.0
4011,Syunik’,admin,Kapan,Kapan,Armenia,1051527958.0,AM,ARM,39.2075,46.4058,
2664,Chelyabinskaya Oblast’,admin,Chelyabinsk,Chelyabinsk,Russia,1643224011.0,RU,RUS,55.155,61.4387,1091000.0
5757,Jilin,,Jilin,Jilin,China,1156646448.0,CN,CHN,43.85,126.55,2396000.0
6900,Devon,admin,Exeter,Exeter,United Kingdom,1826840903.0,GB,GBR,50.7004,-3.53,113118.0
6756,Oxfordshire,admin,Oxford,Oxford,United Kingdom,1826689568.0,GB,GBR,51.7704,-1.25,192796.0
3441,Taipei,primary,Taipei,Taipei,Taiwan,1158881289.0,TW,TWN,25.0358,121.5683,6900273.0
2160,Sankt-Peterburg,admin,St. Petersburg,St. Petersburg,Russia,1643616350.0,RU,RUS,59.939,30.316,4553000.0
8023,Gyeongbuk,minor,Pohang,Pohang,"Korea, South",1410983252.0,KR,KOR,36.0209,129.3715,435266.0
6756,Oxfordshire,admin,Oxford,Oxford,United Kingdom,1826689568.0,GB,GBR,51.7704,-1.25,192796.0
4224,Steiermark,admin,Graz,Graz,Austria,1040184559.0,AT,AUT,47.0778,15.41,263234.0
6225,Matanzas,admin,Matanzas,Matanzas,Cuba,1192888416.0,CU,CUB,23.0415,-81.5775,146733.0
6109,Zhejiang,admin,Hangzhou,Hangzhou,China,1156275243.0,CN,CHN,30.25,120.17,3007000.0
2160,Sankt-Peterburg,admin,St. Petersburg,St. Petersburg,Russia,1643616350.0,RU,RUS,59.939,30.316,4553000.0
7724,Lombardy,admin,Milan,Milan,Italy,1380724377.0,IT,ITA,45.47,9.205,2945000.0
7093,Dytikí Elláda,admin,Patra,Patra,Greece,1300201099.0,GR,GRC,38.23,21.73,163360.0
4226,Wien,primary,Vienna,Vienna,Austria,1040261752.0,AT,AUT,48.2,16.3666,2400000.0
6725,Auvergne-Rhône-Alpes,minor,Grenoble,Grenoble,France,1250071647.0,FR,FRA,45.1804,5.72,388574.0
8553,Florida,,Destin,Destin,United States,1840015008.0,US,USA,30.395,-86.4701,13654.0
7748,Tuscany,minor,Pisa,Pisa,Italy,1380310225.0,IT,ITA,43.7205,10.4,203336.0
4367,Queensland,,Warwick,Warwick,Australia,1036412726.0,AU,AUS,-28.2292,152.0203,12347.0
1421,Oslo,primary,Oslo,Oslo,Norway,1578324706.0,NO,NOR,59.9167,10.75,835000.0
2160,Sankt-Peterburg,admin,St. Petersburg,St. Petersburg,Russia,1643616350.0,RU,RUS,59.939,30.316,4553000.0
1860,Porto,admin,Porto,Porto,Portugal,1620356810.0,PT,PRT,41.15,-8.62,1337000.0
7650,Kermān,admin,Kerman,Kerman,Iran,1364554896.0,IR,IRN,30.3,57.08,577514.0
6279,Bavaria,admin,Munich,Munich,Germany,1276692352.0,DE,DEU,48.1299,11.575,1275000.0
2227,Samarskaya Oblast’,admin,Samara,Samara,Russia,1643205757.0,RU,RUS,53.195,50.1513,1137000.0
4221,Oberösterreich,admin,Linz,Linz,Austria,1040261171.0,AT,AUT,48.3192,14.2888,349161.0
1866,Bragança,admin,Bragança,Braganca,Portugal,1620281131.0,PT,PRT,41.808,-6.755,34375.0
4226,Wien,primary,Vienna,Vienna,Austria,1040261752.0,AT,AUT,48.2,16.3666,2400000.0
5059,São Paulo,,Franca,Franca,Brazil,1076740256.0,BR,BRA,-20.53,-47.39,305041.0
4217,Burgenland,admin,Eisenstadt,Eisenstadt,Austria,1040751740.0,AT,AUT,47.8333,16.5333,13165.0
6294,Mecklenburg-Western Pomerania,,Rostock,Rostock,Germany,1276210265.0,DE,DEU,54.0704,12.15,203080.0
5757,Jilin,,Jilin,Jilin,China,1156646448.0,CN,CHN,43.85,126.55,2396000.0
9664,New York,,Walden,Walden,United States,1840004880.0,US,USA,41.5603,-74.1879,11138.0
5059,São Paulo,,Franca,Franca,Brazil,1076740256.0,BR,BRA,-20.53,-47.39,305041.0
10315,California,,Berkeley,Berkeley,United States,1840018914.0,US,USA,37.8723,-122.276,121240.0
7860,Saitama,admin,Saitama,Saitama,Japan,1392017719.0,JP,JPN,35.9,139.65,
4226,Wien,primary,Vienna,Vienna,Austria,1040261752.0,AT,AUT,48.2,16.3666,2400000.0
1438,Møre og Romsdal,minor,Ålesund,Alesund,Norway,1578050516.0,NO,NOR,62.5454,6.388,47772.0
2787,Norrbotten,admin,Luleå,Lulea,Sweden,1752765449.0,SE,SWE,65.5966,22.1584,48638.0
5823,Fujian,admin,Fuzhou,Fuzhou,China,1156188037.0,CN,CHN,26.08,119.3,2606000.0
5059,São Paulo,,Franca,Franca,Brazil,1076740256.0,BR,BRA,-20.53,-47.39,305041.0
5558,Basel-Stadt,admin,Basel,Basel,Switzerland,1756731313.0,CH,CHE,47.5804,7.59,830000.0
2160,Sankt-Peterburg,admin,St. Petersburg,St. Petersburg,Russia,1643616350.0,RU,RUS,59.939,30.316,4553000.0
5748,Shaanxi,admin,Xian,Xian,China,1156244079.0,CN,CHN,34.275,108.895,4009000.0
7735,Emilia-Romagna,minor,Modena,Modena,Italy,1380306270.0,IT,ITA,44.65,10.92,175502.0
432,Luxembourg,primary,Luxembourg,Luxembourg,Luxembourg,1442262731.0,LU,LUX,49.6117,6.13,107260.0
4217,Burgenland,admin,Eisenstadt,Eisenstadt,Austria,1040751740.0,AT,AUT,47.8333,16.5333,13165.0
2169,Irkutskaya Oblast’,admin,Irkutsk,Irkutsk,Russia,1643439037.0,RU,RUS,52.32,104.245,586695.0
2965,Šenčur,admin,Šenčur,Sencur,Slovenia,1705968659.0,SI,SVN,46.2456,14.4197,
4011,Syunik’,admin,Kapan,Kapan,Armenia,1051527958.0,AM,ARM,39.2075,46.4058,
4972,Ceará,,Russas,Russas,Brazil,1076843360.0,BR,BRA,-4.94,-37.98,39465.0
6647,Pirkanmaa,admin,Tampere,Tampere,Finland,1246964318.0,FI,FIN,61.5,23.75,259279.0
6284,Bremen,admin,Bremen,Bremen,Germany,1276376509.0,DE,DEU,53.08,8.8,724909.0
5733,Shanghai,admin,Shanghai,Shanghai,China,1156073548.0,CN,CHN,31.2165,121.4365,14987000.0
6109,Zhejiang,admin,Hangzhou,Hangzhou,China,1156275243.0,CN,CHN,30.25,120.17,3007000.0
7227,Budapest,primary,Budapest,Budapest,Hungary,1348611435.0,HU,HUN,47.5,19.0833,1679000.0
10663,Arkansas,,Centerton,Centerton,United States,1840014441.0,US,USA,36.3551,-94.296,12861.0
9080,Texas,,Nederland,Nederland,United States,1840020917.0,US,USA,29.9707,-94.0015,17294.0
3732,Salto,admin,Salto,Salto,Uruguay,1858575950.0,UY,URY,-31.3903,-57.9687,105690.0
4367,Queensland,,Warwick,Warwick,Australia,1036412726.0,AU,AUS,-28.2292,152.0203,12347.0
6700,Grand Est,,Mulhouse,Mulhouse,France,1250218452.0,FR,FRA,47.7504,7.35,215454.0
7093,Dytikí Elláda,admin,Patra,Patra,Greece,1300201099.0,GR,GRC,38.23,21.73,163360.0
5782,Heilongjiang,admin,Harbin,Harbin,China,1156241528.0,CN,CHN,45.75,126.65,3621000.0
7724,Lombardy,admin,Milan,Milan,Italy,1380724377.0,IT,ITA,45.47,9.205,2945000.0
11538,Arizona,,Tempe,Tempe,United States,1840021942.0,US,USA,33.3881,-111.9318,182498.0
2412,Tatarstan,admin,Kazan,Kazan,Russia,1643101260.0,RU,RUS,55.7499,49.1263,1115000.0
4221,Oberösterreich,admin,Linz,Linz,Austria,1040261171.0,AT,AUT,48.3192,14.2888,349161.0
7650,Kermān,admin,Kerman,Kerman,Iran,1364554896.0,IR,IRN,30.3,57.08,577514.0
6283,Saxony-Anhalt,admin,Magdeburg,Magdeburg,Germany,1276418236.0,DE,DEU,52.1304,11.62,229826.0
6283,Saxony-Anhalt,admin,Magdeburg,Magdeburg,Germany,1276418236.0,DE,DEU,52.1304,11.62,229826.0
7650,Kermān,admin,Kerman,Kerman,Iran,1364554896.0,IR,IRN,30.3,57.08,577514.0
6647,Pirkanmaa,admin,Tampere,Tampere,Finland,1246964318.0,FI,FIN,61.5,23.75,259279.0
7650,Kermān,admin,Kerman,Kerman,Iran,1364554896.0,IR,IRN,30.3,57.08,577514.0
2787,Norrbotten,admin,Luleå,Lulea,Sweden,1752765449.0,SE,SWE,65.5966,22.1584,48638.0
4217,Burgenland,admin,Eisenstadt,Eisenstadt,Austria,1040751740.0,AT,AUT,47.8333,16.5333,13165.0
3441,Taipei,primary,Taipei,Taipei,Taiwan,1158881289.0,TW,TWN,25.0358,121.5683,6900273.0
6109,Zhejiang,admin,Hangzhou,Hangzhou,China,1156275243.0,CN,CHN,30.25,120.17,3007000.0
2787,Norrbotten,admin,Luleå,Lulea,Sweden,1752765449.0,SE,SWE,65.5966,22.1584,48638.0
2160,Sankt-Peterburg,admin,St. Petersburg,St. Petersburg,Russia,1643616350.0,RU,RUS,59.939,30.316,4553000.0
5748,Shaanxi,admin,Xian,Xian,China,1156244079.0,CN,CHN,34.275,108.895,4009000.0
7227,Budapest,primary,Budapest,Budapest,Hungary,1348611435.0,HU,HUN,47.5,19.0833,1679000.0
4226,Wien,primary,Vienna,Vienna,Austria,1040261752.0,AT,AUT,48.2,16.3666,2400000.0
6703,Grand Est,,Reims,Reims,France,1250608730.0,FR,FRA,49.2504,4.03,196565.0
7736,Emilia-Romagna,minor,Ferrara,Ferrara,Italy,1380682411.0,IT,ITA,44.8504,11.6099,130992.0
476,Rīga,primary,Riga,Riga,Latvia,1428586192.0,LV,LVA,56.95,24.1,742572.0
6279,Bavaria,admin,Munich,Munich,Germany,1276692352.0,DE,DEU,48.1299,11.575,1275000.0
6296,North Rhine-Westphalia,minor,Dortmund,Dortmund,Germany,1276562886.0,DE,DEU,51.53,7.45,588462.0
2303,Chelyabinskaya Oblast’,,Plast,Plast,Russia,1643651635.0,RU,RUS,54.3685,60.8085,17050.0
7650,Kermān,admin,Kerman,Kerman,Iran,1364554896.0,IR,IRN,30.3,57.08,577514.0
38,Amānat al ‘Āşimah,primary,Sanaa,Sanaa,Yemen,1887750814.0,YE,YEM,15.3547,44.2066,2008000.0
1546,Veraguas,admin,Santiago,Santiago,Panama,1591231138.0,PA,PAN,8.1004,-80.9833,45955.0
4224,Steiermark,admin,Graz,Graz,Austria,1040184559.0,AT,AUT,47.0778,15.41,263234.0
12844,Oregon,,Astoria,Astoria,United States,1840018504.0,US,USA,46.1856,-123.8047,14599.0
5059,São Paulo,,Franca,Franca,Brazil,1076740256.0,BR,BRA,-20.53,-47.39,305041.0
6283,Saxony-Anhalt,admin,Magdeburg,Magdeburg,Germany,1276418236.0,DE,DEU,52.1304,11.62,229826.0
5733,Shanghai,admin,Shanghai,Shanghai,China,1156073548.0,CN,CHN,31.2165,121.4365,14987000.0
4972,Ceará,,Russas,Russas,Brazil,1076843360.0,BR,BRA,-4.94,-37.98,39465.0
11253,Indiana,,Brazil,Brazil,United States,1840005744.0,US,USA,39.5232,-87.1244,8110.0
2160,Sankt-Peterburg,admin,St. Petersburg,St. Petersburg,Russia,1643616350.0,RU,RUS,59.939,30.316,4553000.0
2160,Sankt-Peterburg,admin,St. Petersburg,St. Petersburg,Russia,1643616350.0,RU,RUS,59.939,30.316,4553000.0
7750,Sicilia,minor,Catania,Catania,Italy,1380562508.0,IT,ITA,37.5,15.08,674542.0
5059,São Paulo,,Franca,Franca,Brazil,1076740256.0,BR,BRA,-20.53,-47.39,305041.0
7739,Veneto,minor,Verona,Verona,Italy,1380324879.0,IT,ITA,45.4404,10.99,347459.0
7093,Dytikí Elláda,admin,Patra,Patra,Greece,1300201099.0,GR,GRC,38.23,21.73,163360.0
4226,Wien,primary,Vienna,Vienna,Austria,1040261752.0,AT,AUT,48.2,16.3666,2400000.0
8006,Ulsan,admin,Ulsan,Ulsan,"Korea, South",1410134602.0,KR,KOR,35.5467,129.317,1061000.0
2160,Sankt-Peterburg,admin,St. Petersburg,St. Petersburg,Russia,1643616350.0,RU,RUS,59.939,30.316,4553000.0
2160,Sankt-Peterburg,admin,St. Petersburg,St. Petersburg,Russia,1643616350.0,RU,RUS,59.939,30.316,4553000.0
7709,Trentino-Alto Adige,admin,Trento,Trento,Italy,1380953307.0,IT,ITA,46.0804,11.12,107808.0
2160,Sankt-Peterburg,admin,St. Petersburg,St. Petersburg,Russia,1643616350.0,RU,RUS,59.939,30.316,4553000.0
4226,Wien,primary,Vienna,Vienna,Austria,1040261752.0,AT,AUT,48.2,16.3666,2400000.0
2214,Moskva,primary,Moscow,Moscow,Russia,1643318494.0,RU,RUS,55.7522,37.6155,10452000.0
5483,Tanganyika,,Manono,Manono,Congo (Kinshasa),1180968800.0,CD,COD,-7.3,27.45,46111.0
4972,Ceará,,Russas,Russas,Brazil,1076843360.0,BR,BRA,-4.94,-37.98,39465.0
