,admin_name,capital,city,city_ascii,country,id,iso2,iso3,lat,lng,population
1491,Manawatu-Wanganui,,Wanganui,Wanganui,New Zealand,1554827998.0,NZ,NZL,-39.9326,175.0393,43200.0
8205,Virginia,,Blacksburg,Blacksburg,United States,1840006446.0,US,USA,37.23,-80.4277,93560.0
4012,Syunik’,admin,Kapan,Kapan,Armenia,1051527958.0,AM,ARM,39.2075,46.4058,
7858,Wakayama,admin,Wakayama,Wakayama,Japan,1392907296.0,JP,JPN,34.2231,135.1677,440006.0
6078,Chongqing,admin,Chongqing,Chongqing,China,1156936556.0,CN,CHN,29.565,106.595,6461000.0
6123,Liaoning,,Dandong,Dandong,China,1156178316.0,CN,CHN,40.1436,124.3936,870000.0
6037,Anhui,minor,Luan,Luan,China,1156499624.0,CN,CHN,31.7503,116.48,1690000.0
4227,Wien,primary,Vienna,Vienna,Austria,1040261752.0,AT,AUT,48.2,16.3666,2400000.0
3457,Changhua,admin,Changhua,Changhua,Taiwan,1158439005.0,TW,TWN,24.0734,120.5134,750000.0
7810,Tōkyō,primary,Tokyo,Tokyo,Japan,1392685764.0,JP,JPN,35.685,139.7514,35676000.0
5958,Beijing,primary,Beijing,Beijing,China,1156228865.0,CN,CHN,39.9289,116.3883,11106000.0
6939,York,admin,York,York,United Kingdom,1826149980.0,GB,GBR,53.9704,-1.08,158947.0
5914,Hubei,admin,Wuhan,Wuhan,China,1156117184.0,CN,CHN,30.58,114.27,7243000.0
7842,Aichi,admin,Nagoya,Nagoya,Japan,1392407472.0,JP,JPN,35.155,136.915,3230000.0
2809,,primary,Singapore,Singapore,Singapore,1702341327.0,SG,SGP,1.293,103.8558,5183700.0
7235,Győr-Moson-Sopron,admin,Sopron,Sopron,Hungary,1348988570.0,HU,HUN,47.6833,16.6,
6323,Bavaria,minor,Hof,Hof,Germany,1276561363.0,DE,DEU,50.317,11.9167,56153.0
2809,,primary,Singapore,Singapore,Singapore,1702341327.0,SG,SGP,1.293,103.8558,5183700.0
7810,Tōkyō,primary,Tokyo,Tokyo,Japan,1392685764.0,JP,JPN,35.685,139.7514,35676000.0
7810,Tōkyō,primary,Tokyo,Tokyo,Japan,1392685764.0,JP,JPN,35.685,139.7514,35676000.0
5958,Beijing,primary,Beijing,Beijing,China,1156228865.0,CN,CHN,39.9289,116.3883,11106000.0
717,Veles,admin,Veles,Veles,Macedonia,1807468155.0,MK,MKD,41.7156,21.7756,
9515,Nebraska,,Crete,Crete,United States,1840007215.0,US,USA,40.6256,-96.957,7047.0
6316,Bavaria,minor,Ingolstadt,Ingolstadt,Germany,1276803150.0,DE,DEU,48.7704,11.45,163325.0
9520,Tennessee,,Columbia,Columbia,United States,1840014518.0,US,USA,35.6223,-87.048,37845.0
1509,Waikato,,Cambridge,Cambridge,New Zealand,1554000000.0,NZ,NZL,-37.8894,175.4703,15192.0
6316,Bavaria,minor,Ingolstadt,Ingolstadt,Germany,1276803150.0,DE,DEU,48.7704,11.45,163325.0
5208,Nunavut,,Alert,Alert,Canada,1124921853.0,CA,CAN,82.4833,-62.25,125.0
1682,,primary,Manila,Manila,Philippines,1608618140.0,PH,PHL,14.6042,120.9822,11100000.0
2075,Šid,admin,Šid,Sid,Serbia,1688899483.0,RS,SRB,45.1276,19.2267,
4082,La Pampa,,Río Colorado,Rio Colorado,Argentina,1032592194.0,AR,ARG,-38.9666,-64.0833,11499.0
6314,Baden-Württemberg,minor,Karlsruhe,Karlsruhe,Germany,1276923210.0,DE,DEU,49.0,8.4,377487.0
5734,Shanghai,admin,Shanghai,Shanghai,China,1156073548.0,CN,CHN,31.2165,121.4365,14987000.0
1509,Waikato,,Cambridge,Cambridge,New Zealand,1554000000.0,NZ,NZL,-37.8894,175.4703,15192.0
9515,Nebraska,,Crete,Crete,United States,1840007215.0,US,USA,40.6256,-96.957,7047.0
6323,Bavaria,minor,Hof,Hof,Germany,1276561363.0,DE,DEU,50.317,11.9167,56153.0
334,Central,,Kandy,Kandy,Sri Lanka,1144308408.0,LK,LKA,7.28,80.67,111701.0
5958,Beijing,primary,Beijing,Beijing,China,1156228865.0,CN,CHN,39.9289,116.3883,11106000.0
10215,California,,Merced,Merced,United States,1840020313.0,US,USA,37.3057,-120.4779,143272.0
2809,,primary,Singapore,Singapore,Singapore,1702341327.0,SG,SGP,1.293,103.8558,5183700.0
6323,Bavaria,minor,Hof,Hof,Germany,1276561363.0,DE,DEU,50.317,11.9167,56153.0
8016,Incheon,admin,Incheon,Incheon,"Korea, South",1410160313.0,KR,KOR,37.4761,126.6422,2550000.0
10318,California,,Berkeley,Berkeley,United States,1840018914.0,US,USA,37.8723,-122.276,121240.0
6323,Bavaria,minor,Hof,Hof,Germany,1276561363.0,DE,DEU,50.317,11.9167,56153.0
2809,,primary,Singapore,Singapore,Singapore,1702341327.0,SG,SGP,1.293,103.8558,5183700.0
9868,Pennsylvania,,Indiana,Indiana,United States,1840000997.0,US,USA,40.622,-79.1552,28820.0
10318,California,,Berkeley,Berkeley,United States,1840018914.0,US,USA,37.8723,-122.276,121240.0
10210,California,,Riverside,Riverside,United States,1840020551.0,US,USA,33.9382,-117.3949,2065627.0
9394,North Carolina,,Leland,Leland,United States,1840016683.0,US,USA,34.2035,-78.0293,18843.0
10088,California,,Cupertino,Cupertino,United States,1840018950.0,US,USA,37.3167,-122.0465,60643.0
6280,Bavaria,admin,Munich,Munich,Germany,1276692352.0,DE,DEU,48.1299,11.575,1275000.0
6685,Île-de-France,primary,Paris,Paris,France,1250015082.0,FR,FRA,48.8667,2.3333,9904000.0
5770,Anhui,,Suzhou,Suzhou,China,1156871297.0,CN,CHN,33.6361,116.9789,1964000.0
5958,Beijing,primary,Beijing,Beijing,China,1156228865.0,CN,CHN,39.9289,116.3883,11106000.0
6316,Bavaria,minor,Ingolstadt,Ingolstadt,Germany,1276803150.0,DE,DEU,48.7704,11.45,163325.0
7377,Dublin,primary,Dublin,Dublin,Ireland,1372595407.0,IE,IRL,53.3331,-6.2489,1059000.0
7721,Liguria,admin,Genoa,Genoa,Italy,1380716540.0,IT,ITA,44.41,8.93,647497.0
5958,Beijing,primary,Beijing,Beijing,China,1156228865.0,CN,CHN,39.9289,116.3883,11106000.0
4176,Corrientes,minor,Goya,Goya,Argentina,1032251925.0,AR,ARG,-29.14,-59.27,72304.0
2809,,primary,Singapore,Singapore,Singapore,1702341327.0,SG,SGP,1.293,103.8558,5183700.0
12665,South Carolina,,Clemson,Clemson,United States,1840014626.0,US,USA,34.6841,-82.8124,16058.0
4245,New South Wales,admin,Sydney,Sydney,Australia,1036074917.0,AU,AUS,-33.92,151.1852,4630000.0
6278,Berlin,primary,Berlin,Berlin,Germany,1276451290.0,DE,DEU,52.5218,13.4015,3406000.0
5734,Shanghai,admin,Shanghai,Shanghai,China,1156073548.0,CN,CHN,31.2165,121.4365,14987000.0
6536,Al Qāhirah,primary,Cairo,Cairo,Egypt,1818253931.0,EG,EGY,30.05,31.25,11893000.0
6323,Bavaria,minor,Hof,Hof,Germany,1276561363.0,DE,DEU,50.317,11.9167,56153.0
7810,Tōkyō,primary,Tokyo,Tokyo,Japan,1392685764.0,JP,JPN,35.685,139.7514,35676000.0
8106,Washington,,Redmond,Redmond,United States,1840019835.0,US,USA,47.6776,-122.1176,62458.0
4245,New South Wales,admin,Sydney,Sydney,Australia,1036074917.0,AU,AUS,-33.92,151.1852,4630000.0
1869,Braga,admin,Braga,Braga,Portugal,1620949401.0,PT,PRT,41.555,-8.4213,826833.0
7093,Attikí,primary,Athens,Athens,Greece,1300715560.0,GR,GRC,37.9833,23.7333,3242000.0
6600,Madrid,primary,Madrid,Madrid,Spain,1724616994.0,ES,ESP,40.4,-3.6834,5567000.0
5208,Nunavut,,Alert,Alert,Canada,1124921853.0,CA,CAN,82.4833,-62.25,125.0
5958,Beijing,primary,Beijing,Beijing,China,1156228865.0,CN,CHN,39.9289,116.3883,11106000.0
6323,Bavaria,minor,Hof,Hof,Germany,1276561363.0,DE,DEU,50.317,11.9167,56153.0
4221,Salzburg,admin,Salzburg,Salzburg,Austria,1040312147.0,AT,AUT,47.8105,13.04,206279.0
38,Amānat al ‘Āşimah,primary,Sanaa,Sanaa,Yemen,1887750814.0,YE,YEM,15.3547,44.2066,2008000.0
7822,Fukui,admin,Fukui,Fukui,Japan,1392897510.0,JP,JPN,36.0704,136.22,248707.0
5958,Beijing,primary,Beijing,Beijing,China,1156228865.0,CN,CHN,39.9289,116.3883,11106000.0
6280,Bavaria,admin,Munich,Munich,Germany,1276692352.0,DE,DEU,48.1299,11.575,1275000.0
330,Western,,Moratuwa,Moratuwa,Sri Lanka,1144324309.0,LK,LKA,6.7804,79.88,200000.0
5060,São Paulo,,Franca,Franca,Brazil,1076740256.0,BR,BRA,-20.53,-47.39,305041.0
6722,Île-de-France,minor,Versailles,Versailles,France,1250143827.0,FR,FRA,48.8005,2.1333,85416.0
67,North West,,Potchefstroom,Potchefstroom,South Africa,1710838885.0,ZA,ZAF,-26.6996,27.1,123669.0
6922,Wolverhampton,admin,Wolverhampton,Wolverhampton,United Kingdom,1826636841.0,GB,GBR,52.5833,-2.1333,
6323,Bavaria,minor,Hof,Hof,Germany,1276561363.0,DE,DEU,50.317,11.9167,56153.0
9298,Louisiana,,Central,Central,United States,1840023139.0,US,USA,30.5593,-91.0369,28529.0
3389,İstanbul,admin,Istanbul,Istanbul,Turkey,1792756324.0,TR,TUR,41.105,29.01,10061000.0
8419,West Virginia,,Princeton,Princeton,United States,1840006402.0,US,USA,37.3688,-81.0961,5962.0
8324,Wisconsin,,Weston,Weston,United States,1840038093.0,US,USA,44.8905,-89.5488,15092.0
7726,Lombardy,admin,Milan,Milan,Italy,1380724377.0,IT,ITA,45.47,9.205,2945000.0
6110,Zhejiang,admin,Hangzhou,Hangzhou,China,1156275243.0,CN,CHN,30.25,120.17,3007000.0
1422,Oslo,primary,Oslo,Oslo,Norway,1578324706.0,NO,NOR,59.9167,10.75,835000.0
4552,Flanders,minor,Gent,Gent,Belgium,1056062897.0,BE,BEL,51.03,3.7,444336.0
5958,Beijing,primary,Beijing,Beijing,China,1156228865.0,CN,CHN,39.9289,116.3883,11106000.0
6323,Bavaria,minor,Hof,Hof,Germany,1276561363.0,DE,DEU,50.317,11.9167,56153.0
3298,Mary,admin,Mary,Mary,Turkmenistan,1795413265.0,TM,TKM,37.6,61.8333,178708.0
6269,"Praha, Hlavní Město",primary,Prague,Prague,Czechia,1203744823.0,CZ,CZE,50.0833,14.466,1162000.0
6314,Baden-Württemberg,minor,Karlsruhe,Karlsruhe,Germany,1276923210.0,DE,DEU,49.0,8.4,377487.0
432,Luxembourg,primary,Luxembourg,Luxembourg,Luxembourg,1442262731.0,LU,LUX,49.6117,6.13,107260.0
6314,Baden-Württemberg,minor,Karlsruhe,Karlsruhe,Germany,1276923210.0,DE,DEU,49.0,8.4,377487.0
6600,Madrid,primary,Madrid,Madrid,Spain,1724616994.0,ES,ESP,40.4,-3.6834,5567000.0
10318,California,,Berkeley,Berkeley,United States,1840018914.0,US,USA,37.8723,-122.276,121240.0
789,Ségou,minor,San,San,Mali,1466198810.0,ML,MLI,13.3004,-4.9,41386.0
11380,Iowa,,Spencer,Spencer,United States,1840000381.0,US,USA,43.1469,-95.1533,10859.0
7652,Kermān,admin,Kerman,Kerman,Iran,1364554896.0,IR,IRN,30.3,57.08,577514.0
7810,Tōkyō,primary,Tokyo,Tokyo,Japan,1392685764.0,JP,JPN,35.685,139.7514,35676000.0
5958,Beijing,primary,Beijing,Beijing,China,1156228865.0,CN,CHN,39.9289,116.3883,11106000.0
7847,Ōsaka,admin,Ōsaka,Osaka,Japan,1392419823.0,JP,JPN,34.75,135.4601,11294000.0
6323,Bavaria,minor,Hof,Hof,Germany,1276561363.0,DE,DEU,50.317,11.9167,56153.0
7711,Trentino-Alto Adige,admin,Trento,Trento,Italy,1380953307.0,IT,ITA,46.0804,11.12,107808.0
6323,Bavaria,minor,Hof,Hof,Germany,1276561363.0,DE,DEU,50.317,11.9167,56153.0
7810,Tōkyō,primary,Tokyo,Tokyo,Japan,1392685764.0,JP,JPN,35.685,139.7514,35676000.0
6331,Saxony,minor,Chemnitz,Chemnitz,Germany,1276519956.0,DE,DEU,50.83,12.92,302643.0
2789,Stockholm,primary,Stockholm,Stockholm,Sweden,1752425602.0,SE,SWE,59.3508,18.0973,1264000.0
4551,Wallonia,minor,Mons,Mons,Belgium,1056836704.0,BE,BEL,50.446,3.939,91277.0
5958,Beijing,primary,Beijing,Beijing,China,1156228865.0,CN,CHN,39.9289,116.3883,11106000.0
8010,Seoul,primary,Seoul,Seoul,"Korea, South",1410836482.0,KR,KOR,37.5663,126.9997,9796000.0
2809,,primary,Singapore,Singapore,Singapore,1702341327.0,SG,SGP,1.293,103.8558,5183700.0
6939,York,admin,York,York,United Kingdom,1826149980.0,GB,GBR,53.9704,-1.08,158947.0
11502,Arizona,,Tucson,Tucson,United States,1840022101.0,US,USA,32.1558,-110.8777,860333.0
9134,Texas,,Dallas,Dallas,United States,1840019440.0,US,USA,32.7938,-96.7659,5634307.0
9655,New York,,Waterloo,Waterloo,United States,1840004421.0,US,USA,42.9048,-76.8592,5019.0
7842,Aichi,admin,Nagoya,Nagoya,Japan,1392407472.0,JP,JPN,35.155,136.915,3230000.0
6314,Baden-Württemberg,minor,Karlsruhe,Karlsruhe,Germany,1276923210.0,DE,DEU,49.0,8.4,377487.0
6102,Jiangsu,admin,Nanjing,Nanjing,China,1156644065.0,CN,CHN,32.05,118.78,3679000.0
2049,Kula,admin,Kula,Kula,Serbia,1688477275.0,RS,SRB,45.6109,19.5274,
1711,Camarines Norte,admin,Daet,Daet,Philippines,1608562606.0,PH,PHL,14.1122,122.9553,
6323,Bavaria,minor,Hof,Hof,Germany,1276561363.0,DE,DEU,50.317,11.9167,56153.0
1509,Waikato,,Cambridge,Cambridge,New Zealand,1554000000.0,NZ,NZL,-37.8894,175.4703,15192.0
5958,Beijing,primary,Beijing,Beijing,China,1156228865.0,CN,CHN,39.9289,116.3883,11106000.0
9000,Texas,,Sunnyvale,Sunnyvale,United States,1840023031.0,US,USA,32.7974,-96.5576,6194.0
2228,Samarskaya Oblast’,admin,Samara,Samara,Russia,1643205757.0,RU,RUS,53.195,50.1513,1137000.0
10318,California,,Berkeley,Berkeley,United States,1840018914.0,US,USA,37.8723,-122.276,121240.0
6314,Baden-Württemberg,minor,Karlsruhe,Karlsruhe,Germany,1276923210.0,DE,DEU,49.0,8.4,377487.0
9847,Pennsylvania,,Mechanicsburg,Mechanicsburg,United States,1840001388.0,US,USA,40.2115,-77.006,9007.0
5889,Guangdong,minor,Shenzhen,Shenzhen,China,1156158707.0,CN,CHN,22.5524,114.1221,7581000.0
7726,Lombardy,admin,Milan,Milan,Italy,1380724377.0,IT,ITA,45.47,9.205,2945000.0
9188,Texas,,Conroe,Conroe,United States,1840019586.0,US,USA,30.3174,-95.4705,82286.0
6323,Bavaria,minor,Hof,Hof,Germany,1276561363.0,DE,DEU,50.317,11.9167,56153.0
6323,Bavaria,minor,Hof,Hof,Germany,1276561363.0,DE,DEU,50.317,11.9167,56153.0
6697,Normandie,admin,Rouen,Rouen,France,1250372069.0,FR,FRA,49.4304,1.08,532559.0
9414,North Carolina,,Cary,Cary,United States,1840016196.0,US,USA,35.7815,-78.8162,162320.0
7810,Tōkyō,primary,Tokyo,Tokyo,Japan,1392685764.0,JP,JPN,35.685,139.7514,35676000.0
6323,Bavaria,minor,Hof,Hof,Germany,1276561363.0,DE,DEU,50.317,11.9167,56153.0
4368,Queensland,,Warwick,Warwick,Australia,1036412726.0,AU,AUS,-28.2292,152.0203,12347.0
7810,Tōkyō,primary,Tokyo,Tokyo,Japan,1392685764.0,JP,JPN,35.685,139.7514,35676000.0
6323,Bavaria,minor,Hof,Hof,Germany,1276561363.0,DE,DEU,50.317,11.9167,56153.0
10318,California,,Berkeley,Berkeley,United States,1840018914.0,US,USA,37.8723,-122.276,121240.0
6145,Tolima,,Honda,Honda,Colombia,1170848069.0,CO,COL,5.1903,-74.75,35469.0
3410,İzmir,admin,İzmir,Izmir,Turkey,1792725579.0,TR,TUR,38.4361,27.1518,2587000.0
6280,Bavaria,admin,Munich,Munich,Germany,1276692352.0,DE,DEU,48.1299,11.575,1275000.0
6324,Baden-Württemberg,minor,Ulm,Ulm,Germany,1276002212.0,DE,DEU,48.4004,10.0,172955.0
2789,Stockholm,primary,Stockholm,Stockholm,Sweden,1752425602.0,SE,SWE,59.3508,18.0973,1264000.0
11479,Oklahoma,,Norman,Norman,United States,1840020451.0,US,USA,35.2335,-97.3471,114444.0
5303,Ontario,,London,London,Canada,1124469960.0,CA,CAN,42.97,-81.25,346765.0
2809,,primary,Singapore,Singapore,Singapore,1702341327.0,SG,SGP,1.293,103.8558,5183700.0
6323,Bavaria,minor,Hof,Hof,Germany,1276561363.0,DE,DEU,50.317,11.9167,56153.0
6278,Berlin,primary,Berlin,Berlin,Germany,1276451290.0,DE,DEU,52.5218,13.4015,3406000.0
7810,Tōkyō,primary,Tokyo,Tokyo,Japan,1392685764.0,JP,JPN,35.685,139.7514,35676000.0
6323,Bavaria,minor,Hof,Hof,Germany,1276561363.0,DE,DEU,50.317,11.9167,56153.0
5060,São Paulo,,Franca,Franca,Brazil,1076740256.0,BR,BRA,-20.53,-47.39,305041.0
5734,Shanghai,admin,Shanghai,Shanghai,China,1156073548.0,CN,CHN,31.2165,121.4365,14987000.0
9868,Pennsylvania,,Indiana,Indiana,United States,1840000997.0,US,USA,40.622,-79.1552,28820.0
9655,New York,,Waterloo,Waterloo,United States,1840004421.0,US,USA,42.9048,-76.8592,5019.0
2809,,primary,Singapore,Singapore,Singapore,1702341327.0,SG,SGP,1.293,103.8558,5183700.0
7377,Dublin,primary,Dublin,Dublin,Ireland,1372595407.0,IE,IRL,53.3331,-6.2489,1059000.0
3466,Tainan,admin,Tainan,Tainan,Taiwan,1158061376.0,TW,TWN,23.0,120.2,1876312.0
5290,Ontario,admin,Toronto,Toronto,Canada,1124279679.0,CA,CAN,43.7,-79.42,5213000.0
6324,Baden-Württemberg,minor,Ulm,Ulm,Germany,1276002212.0,DE,DEU,48.4004,10.0,172955.0
8010,Seoul,primary,Seoul,Seoul,"Korea, South",1410836482.0,KR,KOR,37.5663,126.9997,9796000.0
7771,Hanover,admin,Lucea,Lucea,Jamaica,1388423676.0,JM,JAM,18.443,-78.179,6289.0
2809,,primary,Singapore,Singapore,Singapore,1702341327.0,SG,SGP,1.293,103.8558,5183700.0
6292,Saxony,admin,Dresden,Dresden,Germany,1276561036.0,DE,DEU,51.05,13.75,617515.0
4230,Queensland,,Cairns,Cairns,Australia,1036016939.0,AU,AUS,-16.8878,145.7633,154225.0
2809,,primary,Singapore,Singapore,Singapore,1702341327.0,SG,SGP,1.293,103.8558,5183700.0
10210,California,,Riverside,Riverside,United States,1840020551.0,US,USA,33.9382,-117.3949,2065627.0
131,Western Cape,,George,George,South Africa,1710164136.0,ZA,ZAF,-33.95,22.45,174582.0
5958,Beijing,primary,Beijing,Beijing,China,1156228865.0,CN,CHN,39.9289,116.3883,11106000.0
5405,Nova Scotia,,Liverpool,Liverpool,Canada,1124159558.0,CA,CAN,44.04,-64.72,4331.0
5060,São Paulo,,Franca,Franca,Brazil,1076740256.0,BR,BRA,-20.53,-47.39,305041.0
6324,Baden-Württemberg,minor,Ulm,Ulm,Germany,1276002212.0,DE,DEU,48.4004,10.0,172955.0
2780,Västra Götaland,admin,Göteborg,Goteborg,Sweden,1752059374.0,SE,SWE,57.75,12.0,537797.0
5060,São Paulo,,Franca,Franca,Brazil,1076740256.0,BR,BRA,-20.53,-47.39,305041.0
6280,Bavaria,admin,Munich,Munich,Germany,1276692352.0,DE,DEU,48.1299,11.575,1275000.0
5734,Shanghai,admin,Shanghai,Shanghai,China,1156073548.0,CN,CHN,31.2165,121.4365,14987000.0
6314,Baden-Württemberg,minor,Karlsruhe,Karlsruhe,Germany,1276923210.0,DE,DEU,49.0,8.4,377487.0
1955,Cluj,admin,Cluj-Napoca,Cluj-Napoca,Romania,1642503974.0,RO,ROU,46.7884,23.5984,316748.0
2809,,primary,Singapore,Singapore,Singapore,1702341327.0,SG,SGP,1.293,103.8558,5183700.0
10979,Illinois,,Urbana,Urbana,United States,1840010451.0,US,USA,40.1106,-88.1972,42014.0
8490,Florida,,Sanford,Sanford,United States,1840015958.0,US,USA,28.7892,-81.276,58605.0
5060,São Paulo,,Franca,Franca,Brazil,1076740256.0,BR,BRA,-20.53,-47.39,305041.0
9083,Texas,,Nederland,Nederland,United States,1840020917.0,US,USA,29.9707,-94.0015,17294.0
5958,Beijing,primary,Beijing,Beijing,China,1156228865.0,CN,CHN,39.9289,116.3883,11106000.0
7721,Liguria,admin,Genoa,Genoa,Italy,1380716540.0,IT,ITA,44.41,8.93,647497.0
9515,Nebraska,,Crete,Crete,United States,1840007215.0,US,USA,40.6256,-96.957,7047.0
8269,Wisconsin,,Columbus,Columbus,United States,1840002708.0,US,USA,43.3354,-89.0299,6674.0
10979,Illinois,,Urbana,Urbana,United States,1840010451.0,US,USA,40.1106,-88.1972,42014.0
1695,Angeles,admin,Angeles,Angeles,Philippines,1608036027.0,PH,PHL,15.1451,120.5451,314493.0
7750,Tuscany,minor,Pisa,Pisa,Italy,1380310225.0,IT,ITA,43.7205,10.4,203336.0
6323,Bavaria,minor,Hof,Hof,Germany,1276561363.0,DE,DEU,50.317,11.9167,56153.0
6727,Auvergne-Rhône-Alpes,minor,Grenoble,Grenoble,France,1250071647.0,FR,FRA,45.1804,5.72,388574.0
8010,Seoul,primary,Seoul,Seoul,"Korea, South",1410836482.0,KR,KOR,37.5663,126.9997,9796000.0
6280,Bavaria,admin,Munich,Munich,Germany,1276692352.0,DE,DEU,48.1299,11.575,1275000.0
9868,Pennsylvania,,Indiana,Indiana,United States,1840000997.0,US,USA,40.622,-79.1552,28820.0
9000,Texas,,Sunnyvale,Sunnyvale,United States,1840023031.0,US,USA,32.7974,-96.5576,6194.0
10210,California,,Riverside,Riverside,United States,1840020551.0,US,USA,33.9382,-117.3949,2065627.0
6314,Baden-Württemberg,minor,Karlsruhe,Karlsruhe,Germany,1276923210.0,DE,DEU,49.0,8.4,377487.0
9923,Pennsylvania,,Carnegie,Carnegie,United States,1840001214.0,US,USA,40.408,-80.0861,7913.0
7729,Tuscany,admin,Florence,Florence,Italy,1380726561.0,IT,ITA,43.78,11.25,1500000.0
7810,Tōkyō,primary,Tokyo,Tokyo,Japan,1392685764.0,JP,JPN,35.685,139.7514,35676000.0
5958,Beijing,primary,Beijing,Beijing,China,1156228865.0,CN,CHN,39.9289,116.3883,11106000.0
7810,Tōkyō,primary,Tokyo,Tokyo,Japan,1392685764.0,JP,JPN,35.685,139.7514,35676000.0
2809,,primary,Singapore,Singapore,Singapore,1702341327.0,SG,SGP,1.293,103.8558,5183700.0
2809,,primary,Singapore,Singapore,Singapore,1702341327.0,SG,SGP,1.293,103.8558,5183700.0
5734,Shanghai,admin,Shanghai,Shanghai,China,1156073548.0,CN,CHN,31.2165,121.4365,14987000.0
2809,,primary,Singapore,Singapore,Singapore,1702341327.0,SG,SGP,1.293,103.8558,5183700.0
6280,Bavaria,admin,Munich,Munich,Germany,1276692352.0,DE,DEU,48.1299,11.575,1275000.0
6280,Bavaria,admin,Munich,Munich,Germany,1276692352.0,DE,DEU,48.1299,11.575,1275000.0
5624,Biobío,,Coronel,Coronel,Chile,1152234834.0,CL,CHL,-37.03,-73.16,92940.0
6685,Île-de-France,primary,Paris,Paris,France,1250015082.0,FR,FRA,48.8667,2.3333,9904000.0
1509,Waikato,,Cambridge,Cambridge,New Zealand,1554000000.0,NZ,NZL,-37.8894,175.4703,15192.0
5958,Beijing,primary,Beijing,Beijing,China,1156228865.0,CN,CHN,39.9289,116.3883,11106000.0
6683,Pays de la Loire,admin,Nantes,Nantes,France,1250091495.0,FR,FRA,47.2104,-1.59,438537.0
5934,Guangdong,admin,Guangzhou,Guangzhou,China,1156237133.0,CN,CHN,23.145,113.325,8829000.0
5759,Hubei,,Macheng,Macheng,China,1156949639.0,CN,CHN,31.18,115.03,126366.0
6078,Chongqing,admin,Chongqing,Chongqing,China,1156936556.0,CN,CHN,29.565,106.595,6461000.0
4227,Wien,primary,Vienna,Vienna,Austria,1040261752.0,AT,AUT,48.2,16.3666,2400000.0
6727,Auvergne-Rhône-Alpes,minor,Grenoble,Grenoble,France,1250071647.0,FR,FRA,45.1804,5.72,388574.0
6297,North Rhine-Westphalia,minor,Dortmund,Dortmund,Germany,1276562886.0,DE,DEU,51.53,7.45,588462.0
7235,Győr-Moson-Sopron,admin,Sopron,Sopron,Hungary,1348988570.0,HU,HUN,47.6833,16.6,
5958,Beijing,primary,Beijing,Beijing,China,1156228865.0,CN,CHN,39.9289,116.3883,11106000.0
8943,Texas,,Anna,Anna,United States,1840019397.0,US,USA,33.3475,-96.5512,15554.0
11380,Iowa,,Spencer,Spencer,United States,1840000381.0,US,USA,43.1469,-95.1533,10859.0
2809,,primary,Singapore,Singapore,Singapore,1702341327.0,SG,SGP,1.293,103.8558,5183700.0
5958,Beijing,primary,Beijing,Beijing,China,1156228865.0,CN,CHN,39.9289,116.3883,11106000.0
7750,Tuscany,minor,Pisa,Pisa,Italy,1380310225.0,IT,ITA,43.7205,10.4,203336.0
5958,Beijing,primary,Beijing,Beijing,China,1156228865.0,CN,CHN,39.9289,116.3883,11106000.0
5958,Beijing,primary,Beijing,Beijing,China,1156228865.0,CN,CHN,39.9289,116.3883,11106000.0
6323,Bavaria,minor,Hof,Hof,Germany,1276561363.0,DE,DEU,50.317,11.9167,56153.0
321,Triesen,admin,Triesen,Triesen,Liechtenstein,1438826448.0,LI,LIE,47.1101,9.524,
4222,Oberösterreich,admin,Linz,Linz,Austria,1040261171.0,AT,AUT,48.3192,14.2888,349161.0
7211,"Zagreb, Grad",primary,Zagreb,Zagreb,Croatia,1191233290.0,HR,HRV,45.8,16.0,722526.0
7828,Ishikawa,admin,Kanazawa,Kanazawa,Japan,1392684679.0,JP,JPN,36.56,136.64,551249.0
6280,Bavaria,admin,Munich,Munich,Germany,1276692352.0,DE,DEU,48.1299,11.575,1275000.0
4777,Distrito Federal,primary,Brasília,Brasilia,Brazil,1076144436.0,BR,BRA,-15.7833,-47.9161,3716996.0
6314,Baden-Württemberg,minor,Karlsruhe,Karlsruhe,Germany,1276923210.0,DE,DEU,49.0,8.4,377487.0
7377,Dublin,primary,Dublin,Dublin,Ireland,1372595407.0,IE,IRL,53.3331,-6.2489,1059000.0
6683,Pays de la Loire,admin,Nantes,Nantes,France,1250091495.0,FR,FRA,47.2104,-1.59,438537.0
6314,Baden-Württemberg,minor,Karlsruhe,Karlsruhe,Germany,1276923210.0,DE,DEU,49.0,8.4,377487.0
1744,Biliran,admin,Naval,Naval,Philippines,1608929611.0,PH,PHL,11.5612,124.3952,
3398,Malatya,admin,Malatya,Malatya,Turkey,1792485155.0,TR,TUR,38.3704,38.3,461574.0
5958,Beijing,primary,Beijing,Beijing,China,1156228865.0,CN,CHN,39.9289,116.3883,11106000.0
2789,Stockholm,primary,Stockholm,Stockholm,Sweden,1752425602.0,SE,SWE,59.3508,18.0973,1264000.0
8010,Seoul,primary,Seoul,Seoul,"Korea, South",1410836482.0,KR,KOR,37.5663,126.9997,9796000.0
5958,Beijing,primary,Beijing,Beijing,China,1156228865.0,CN,CHN,39.9289,116.3883,11106000.0
8379,Wisconsin,,Superior,Superior,United States,1840038034.0,US,USA,46.694,-92.0823,26475.0
5958,Beijing,primary,Beijing,Beijing,China,1156228865.0,CN,CHN,39.9289,116.3883,11106000.0
4848,Maranhão,,Coroatá,Coroata,Brazil,1076890180.0,BR,BRA,-4.1296,-44.15,34129.0
6685,Île-de-France,primary,Paris,Paris,France,1250015082.0,FR,FRA,48.8667,2.3333,9904000.0
6323,Bavaria,minor,Hof,Hof,Germany,1276561363.0,DE,DEU,50.317,11.9167,56153.0
1690,Davao Occidental,admin,Malita,Malita,Philippines,1608802375.0,PH,PHL,6.415,125.6117,
6280,Bavaria,admin,Munich,Munich,Germany,1276692352.0,DE,DEU,48.1299,11.575,1275000.0
5060,São Paulo,,Franca,Franca,Brazil,1076740256.0,BR,BRA,-20.53,-47.39,305041.0
8820,New Jersey,,Carlstadt,Carlstadt,United States,1840000895.0,US,USA,40.825,-74.0614,6249.0
7810,Tōkyō,primary,Tokyo,Tokyo,Japan,1392685764.0,JP,JPN,35.685,139.7514,35676000.0
7721,Liguria,admin,Genoa,Genoa,Italy,1380716540.0,IT,ITA,44.41,8.93,647497.0
6301,North Rhine-Westphalia,minor,Bielefeld,Bielefeld,Germany,1276112885.0,DE,DEU,52.03,8.53,331906.0
5734,Shanghai,admin,Shanghai,Shanghai,China,1156073548.0,CN,CHN,31.2165,121.4365,14987000.0
9288,Louisiana,,Lafayette,Lafayette,United States,1840015044.0,US,USA,30.2097,-92.0314,267376.0
7510,Delhi,admin,Delhi,Delhi,India,1356872604.0,IN,IND,28.67,77.23,15926000.0
6952,Bedford,admin,Bedford,Bedford,United Kingdom,1826771105.0,GB,GBR,52.1333,-0.45,
6886,Southampton,admin,Southampton,Southampton,United Kingdom,1826602892.0,GB,GBR,50.9,-1.4,384417.0
8248,District of Columbia,primary,Washington,Washington,United States,1840006060.0,US,USA,38.9047,-77.0163,5191844.0
10464,Nevada,,Reno,Reno,United States,1840020121.0,US,USA,39.5487,-119.8486,427007.0
1453,,minor,Trondheim,Trondheim,Norway,1578633461.0,NO,NOR,63.4167,10.4167,147139.0
10318,California,,Berkeley,Berkeley,United States,1840018914.0,US,USA,37.8723,-122.276,121240.0
6296,Hesse,minor,Kassel,Kassel,Germany,1276791686.0,DE,DEU,51.3,9.5,289924.0
9134,Texas,,Dallas,Dallas,United States,1840019440.0,US,USA,32.7938,-96.7659,5634307.0
5419,Ontario,,Sarnia,Sarnia,Canada,1124509835.0,CA,CAN,42.9666,-82.4,144172.0
6323,Bavaria,minor,Hof,Hof,Germany,1276561363.0,DE,DEU,50.317,11.9167,56153.0
4227,Wien,primary,Vienna,Vienna,Austria,1040261752.0,AT,AUT,48.2,16.3666,2400000.0
7055,Labé,admin,Labé,Labe,Guinea,1324900784.0,GN,GIN,11.32,-12.3,140575.0
8490,Florida,,Sanford,Sanford,United States,1840015958.0,US,USA,28.7892,-81.276,58605.0
334,Central,,Kandy,Kandy,Sri Lanka,1144308408.0,LK,LKA,7.28,80.67,111701.0
6600,Madrid,primary,Madrid,Madrid,Spain,1724616994.0,ES,ESP,40.4,-3.6834,5567000.0
8079,Washington,,Omak,Omak,United States,1840019761.0,US,USA,48.4214,-119.5178,8208.0
6323,Bavaria,minor,Hof,Hof,Germany,1276561363.0,DE,DEU,50.317,11.9167,56153.0
7842,Aichi,admin,Nagoya,Nagoya,Japan,1392407472.0,JP,JPN,35.155,136.915,3230000.0
6323,Bavaria,minor,Hof,Hof,Germany,1276561363.0,DE,DEU,50.317,11.9167,56153.0
6324,Baden-Württemberg,minor,Ulm,Ulm,Germany,1276002212.0,DE,DEU,48.4004,10.0,172955.0
4368,Queensland,,Warwick,Warwick,Australia,1036412726.0,AU,AUS,-28.2292,152.0203,12347.0
5783,Heilongjiang,admin,Harbin,Harbin,China,1156241528.0,CN,CHN,45.75,126.65,3621000.0
6323,Bavaria,minor,Hof,Hof,Germany,1276561363.0,DE,DEU,50.317,11.9167,56153.0
8832,New Jersey,,Newton,Newton,United States,1840000786.0,US,USA,41.0535,-74.7527,11808.0
7771,Hanover,admin,Lucea,Lucea,Jamaica,1388423676.0,JM,JAM,18.443,-78.179,6289.0
7751,Emilia-Romagna,minor,Parma,Parma,Italy,1380655938.0,IT,ITA,44.8104,10.32,166011.0
8010,Seoul,primary,Seoul,Seoul,"Korea, South",1410836482.0,KR,KOR,37.5663,126.9997,9796000.0
6323,Bavaria,minor,Hof,Hof,Germany,1276561363.0,DE,DEU,50.317,11.9167,56153.0
334,Central,,Kandy,Kandy,Sri Lanka,1144308408.0,LK,LKA,7.28,80.67,111701.0
8019,Daejeon,admin,Daejeon,Daejeon,"Korea, South",1410993875.0,KR,KOR,36.3355,127.425,1468000.0
7235,Győr-Moson-Sopron,admin,Sopron,Sopron,Hungary,1348988570.0,HU,HUN,47.6833,16.6,
6323,Bavaria,minor,Hof,Hof,Germany,1276561363.0,DE,DEU,50.317,11.9167,56153.0
432,Luxembourg,primary,Luxembourg,Luxembourg,Luxembourg,1442262731.0,LU,LUX,49.6117,6.13,107260.0
1545,Chiriquí,admin,David,David,Panama,1591487342.0,PA,PAN,8.4333,-82.4333,110037.0
786,Koulikoro,minor,Nara,Nara,Mali,1466925477.0,ML,MLI,15.18,-7.28,18459.0
7726,Lombardy,admin,Milan,Milan,Italy,1380724377.0,IT,ITA,45.47,9.205,2945000.0
10318,California,,Berkeley,Berkeley,United States,1840018914.0,US,USA,37.8723,-122.276,121240.0
7377,Dublin,primary,Dublin,Dublin,Ireland,1372595407.0,IE,IRL,53.3331,-6.2489,1059000.0
5958,Beijing,primary,Beijing,Beijing,China,1156228865.0,CN,CHN,39.9289,116.3883,11106000.0
1509,Waikato,,Cambridge,Cambridge,New Zealand,1554000000.0,NZ,NZL,-37.8894,175.4703,15192.0
6323,Bavaria,minor,Hof,Hof,Germany,1276561363.0,DE,DEU,50.317,11.9167,56153.0
6323,Bavaria,minor,Hof,Hof,Germany,1276561363.0,DE,DEU,50.317,11.9167,56153.0
5958,Beijing,primary,Beijing,Beijing,China,1156228865.0,CN,CHN,39.9289,116.3883,11106000.0
10477,Colorado,,Fountain,Fountain,United States,1840020236.0,US,USA,38.6863,-104.6744,28753.0
7168,Upper Demerara-Berbice,admin,Linden,Linden,Guyana,1328531190.0,GY,GUY,5.99,-58.27,44690.0
10318,California,,Berkeley,Berkeley,United States,1840018914.0,US,USA,37.8723,-122.276,121240.0
9134,Texas,,Dallas,Dallas,United States,1840019440.0,US,USA,32.7938,-96.7659,5634307.0
2215,Moskva,primary,Moscow,Moscow,Russia,1643318494.0,RU,RUS,55.7522,37.6155,10452000.0
1509,Waikato,,Cambridge,Cambridge,New Zealand,1554000000.0,NZ,NZL,-37.8894,175.4703,15192.0
10318,California,,Berkeley,Berkeley,United States,1840018914.0,US,USA,37.8723,-122.276,121240.0
7833,Kyōto,admin,Kyoto,Kyoto,Japan,1392622735.0,JP,JPN,35.03,135.75,1805000.0
6311,Lower Saxony,minor,Braunschweig,Braunschweig,Germany,1276941443.0,DE,DEU,52.25,10.5,244715.0
10666,Arkansas,,Centerton,Centerton,United States,1840014441.0,US,USA,36.3551,-94.296,12861.0
1873,Coimbra,admin,Coimbra,Coimbra,Portugal,1620166724.0,PT,PRT,40.2004,-8.4167,106582.0
7847,Ōsaka,admin,Ōsaka,Osaka,Japan,1392419823.0,JP,JPN,34.75,135.4601,11294000.0
7235,Győr-Moson-Sopron,admin,Sopron,Sopron,Hungary,1348988570.0,HU,HUN,47.6833,16.6,
6535,Aswān,admin,Aswan,Aswan,Egypt,1818262512.0,EG,EGY,24.0875,32.8989,313442.0
4225,Steiermark,admin,Graz,Graz,Austria,1040184559.0,AT,AUT,47.0778,15.41,263234.0
2809,,primary,Singapore,Singapore,Singapore,1702341327.0,SG,SGP,1.293,103.8558,5183700.0
6145,Tolima,,Honda,Honda,Colombia,1170848069.0,CO,COL,5.1903,-74.75,35469.0
7229,Budapest,primary,Budapest,Budapest,Hungary,1348611435.0,HU,HUN,47.5,19.0833,1679000.0
555,Al Jufrah,admin,Hun,Hun,Libya,1434396501.0,LY,LBY,29.1167,15.9333,18878.0
8010,Seoul,primary,Seoul,Seoul,"Korea, South",1410836482.0,KR,KOR,37.5663,126.9997,9796000.0
4316,New South Wales,,Richmond,Richmond,Australia,1036934091.0,AU,AUS,-33.5995,150.74,13880.0
7833,Kyōto,admin,Kyoto,Kyoto,Japan,1392622735.0,JP,JPN,35.03,135.75,1805000.0
1414,Overijssel,admin,Zwolle,Zwolle,Netherlands,1528690076.0,NL,NLD,52.524,6.097,111805.0
8490,Florida,,Sanford,Sanford,United States,1840015958.0,US,USA,28.7892,-81.276,58605.0
9149,Texas,,Slaton,Slaton,United States,1840021982.0,US,USA,33.4421,-101.6477,5880.0
5749,Shaanxi,admin,Xian,Xian,China,1156244079.0,CN,CHN,34.275,108.895,4009000.0
2781,Halland,admin,Halmstad,Halmstad,Sweden,1752392511.0,SE,SWE,56.6718,12.8556,55657.0
6280,Bavaria,admin,Munich,Munich,Germany,1276692352.0,DE,DEU,48.1299,11.575,1275000.0
6323,Bavaria,minor,Hof,Hof,Germany,1276561363.0,DE,DEU,50.317,11.9167,56153.0
6600,Madrid,primary,Madrid,Madrid,Spain,1724616994.0,ES,ESP,40.4,-3.6834,5567000.0
5958,Beijing,primary,Beijing,Beijing,China,1156228865.0,CN,CHN,39.9289,116.3883,11106000.0
7810,Tōkyō,primary,Tokyo,Tokyo,Japan,1392685764.0,JP,JPN,35.685,139.7514,35676000.0
5060,São Paulo,,Franca,Franca,Brazil,1076740256.0,BR,BRA,-20.53,-47.39,305041.0
5770,Anhui,,Suzhou,Suzhou,China,1156871297.0,CN,CHN,33.6361,116.9789,1964000.0
8010,Seoul,primary,Seoul,Seoul,"Korea, South",1410836482.0,KR,KOR,37.5663,126.9997,9796000.0
5958,Beijing,primary,Beijing,Beijing,China,1156228865.0,CN,CHN,39.9289,116.3883,11106000.0
6685,Île-de-France,primary,Paris,Paris,France,1250015082.0,FR,FRA,48.8667,2.3333,9904000.0
